City,Longitude,Latitude,Temperature,Humidity,Cloudiness,Wind Speed,Country,Date
sibu,111.82,2.3,87.8,74.0,75.0,2.24,MY,1602910881.0
snezhnogorsk,33.25,69.19,23.0,92.0,40.0,2.24,RU,1602910912.0
hermanus,19.23,-34.42,59.0,96.0,65.0,4.29,ZA,1602910854.0
tosagua,-80.25,-0.78,73.4,83.0,75.0,8.05,EC,1602910912.0
lagos,3.75,6.58,75.2,94.0,20.0,4.7,NG,1602910873.0
bethel,-73.41,41.37,45.0,95.0,100.0,1.99,US,1602910516.0
jamestown,-79.24,42.1,35.6,64.0,1.0,3.76,US,1602910912.0
hobart,147.33,-42.88,48.99,81.0,75.0,6.93,AU,1602910675.0
przasnysz,20.88,53.02,43.0,93.0,75.0,5.82,PL,1602910912.0
vaini,-175.2,-21.2,75.2,94.0,90.0,11.41,TO,1602910651.0
narsaq,-46.05,60.92,37.4,74.0,100.0,3.36,GL,1602910338.0
dingle,122.67,11.0,85.78,74.0,77.0,5.35,PH,1602910913.0
torbay,-52.73,47.67,50.0,100.0,90.0,2.24,CA,1602910913.0
barcelos,-8.62,41.54,51.01,93.0,20.0,6.93,PT,1602910808.0
comodoro rivadavia,-67.5,-45.87,62.6,39.0,26.0,10.29,AR,1602910913.0
ushuaia,-68.3,-54.8,39.2,80.0,6.0,8.05,AR,1602910841.0
tiksi,128.87,71.69,26.04,98.0,100.0,8.23,RU,1602910913.0
tezu,96.17,27.92,91.17,39.0,0.0,3.18,IN,1602910913.0
thompson,-97.86,55.74,26.6,92.0,90.0,8.05,CA,1602910805.0
ribeira grande,-28.7,38.52,63.23,65.0,77.0,8.88,PT,1602910689.0
abay,72.85,49.63,53.6,37.0,97.0,2.24,KZ,1602910913.0
sungaipenuh,101.38,-2.08,81.5,51.0,72.0,6.15,ID,1602910914.0
santa maria,-53.81,-29.68,57.04,88.0,0.0,7.14,BR,1602910447.0
busselton,115.33,-33.65,73.99,33.0,0.0,1.03,AU,1602910914.0
chokurdakh,147.92,70.63,27.68,98.0,100.0,5.7,RU,1602910914.0
bossangoa,17.46,6.49,69.8,96.0,88.0,1.86,CF,1602910914.0
henties bay,14.28,-22.12,57.0,94.0,20.0,1.01,NA,1602910914.0
port alfred,26.89,-33.59,67.19,67.0,30.0,4.81,ZA,1602910915.0
albany,-73.97,42.6,46.0,69.0,100.0,7.72,US,1602910915.0
tasiilaq,-37.64,65.61,33.8,74.0,92.0,16.11,GL,1602910915.0
kurumkan,110.3,54.3,32.47,79.0,82.0,4.05,RU,1602910915.0
verkhoyansk,133.38,67.54,14.79,91.0,100.0,6.04,RU,1602910915.0
neiafu,-173.98,-18.65,77.0,88.0,75.0,14.99,TO,1602910915.0
katsuura,140.3,35.13,55.0,93.0,100.0,3.0,JP,1602910915.0
puerto ayora,-90.35,-0.74,69.01,93.0,97.0,8.01,EC,1602910698.0
namibe,12.15,-15.2,70.99,67.0,93.0,2.84,AO,1602910915.0
rikitea,-134.97,-23.12,74.03,82.0,100.0,20.67,PF,1602910916.0
qaanaaq,-69.36,77.48,28.45,89.0,34.0,5.86,GL,1602910916.0
nome,-165.41,64.5,39.2,86.0,90.0,28.86,US,1602910336.0
ewo,14.82,-0.87,71.2,94.0,99.0,1.92,CG,1602910916.0
kaitangata,169.85,-46.28,51.01,67.0,85.0,11.99,NZ,1602910916.0
santa rosalia,-112.28,27.32,80.37,44.0,15.0,1.19,MX,1602910768.0
mocuba,36.99,-16.84,73.58,70.0,85.0,4.05,MZ,1602910917.0
cofradia,-88.15,15.4,75.0,98.0,100.0,2.26,HN,1602910917.0
mar del plata,-57.56,-38.0,59.0,100.0,0.0,10.47,AR,1602910337.0
sola,167.55,-13.88,79.72,83.0,4.0,16.06,VU,1602910443.0
bambous virieux,57.76,-20.34,79.0,78.0,20.0,3.36,MU,1602910917.0
cape town,18.42,-33.93,59.0,87.0,90.0,5.82,ZA,1602910621.0
kavieng,150.8,-2.57,84.24,69.0,97.0,11.34,PG,1602910412.0
barrow,-156.79,71.29,17.6,72.0,1.0,20.8,US,1602910947.0
airai,125.41,-8.93,79.59,43.0,43.0,4.0,TL,1602910948.0
esperance,121.9,-33.87,64.4,59.0,40.0,12.75,AU,1602910948.0
punta arenas,-70.92,-53.15,35.6,93.0,40.0,6.93,CL,1602910718.0
enna,14.29,37.56,54.0,71.0,0.0,1.99,IT,1602910948.0
igrim,64.42,63.19,29.5,91.0,0.0,11.36,RU,1602910948.0
ahome,-109.18,25.92,81.0,86.0,0.0,1.99,MX,1602910948.0
sfantu gheorghe,25.78,45.87,52.0,10.0,100.0,11.99,RO,1602910948.0
yumen,97.2,40.28,56.08,30.0,60.0,19.33,CN,1602910372.0
victoria,114.16,22.29,80.01,65.0,47.0,13.0,HK,1602910145.0
mandan,-100.89,46.83,37.4,100.0,75.0,9.17,US,1602910949.0
hithadhoo,73.08,-0.6,83.86,73.0,40.0,19.98,MV,1602910949.0
boa vista,-60.67,2.82,82.4,65.0,26.0,4.7,BR,1602910810.0
souillac,57.52,-20.52,75.2,78.0,20.0,3.36,MU,1602910726.0
peniche,-9.38,39.36,53.01,99.0,100.0,4.0,PT,1602910515.0
constitucion,-72.42,-35.33,52.07,91.0,6.0,1.48,CL,1602910412.0
saint george,-113.58,37.1,66.2,12.0,1.0,4.18,US,1602910472.0
bredasdorp,20.04,-34.53,57.2,93.0,77.0,11.41,ZA,1602910701.0
menongue,17.69,-14.66,65.62,80.0,73.0,3.85,AO,1602910949.0
klaksvik,-6.59,62.23,44.6,87.0,87.0,6.93,FO,1602910949.0
pinega,43.39,64.7,30.83,95.0,19.0,8.03,RU,1602910950.0
alyangula,136.42,-13.85,89.6,49.0,90.0,6.93,AU,1602910950.0
mahebourg,57.7,-20.41,75.2,78.0,20.0,3.36,MU,1602910950.0
kutum,24.67,14.2,73.98,20.0,3.0,8.14,SD,1602910171.0
suzun,82.31,53.78,52.32,46.0,85.0,13.09,RU,1602910950.0
kavaratti,72.64,10.57,84.2,74.0,20.0,5.82,IN,1602910950.0
hamilton,-84.53,39.18,44.01,52.0,75.0,6.93,US,1602910804.0
kawambwa,29.08,-9.79,70.86,55.0,0.0,7.11,ZM,1602910950.0
carnarvon,113.63,-24.87,77.0,65.0,0.0,18.34,AU,1602910951.0
emba,58.14,48.83,57.18,36.0,40.0,14.94,KZ,1602910951.0
hilo,-155.09,19.73,80.6,74.0,20.0,11.41,US,1602910951.0
jishou,109.72,28.32,60.13,78.0,100.0,2.95,CN,1602910951.0
cidreira,-50.21,-30.18,63.64,79.0,1.0,18.7,BR,1602910951.0
ust-tsilma,52.15,65.44,29.95,96.0,64.0,5.99,RU,1602910951.0
vilyuysk,121.62,63.76,22.42,88.0,28.0,9.69,RU,1602910951.0
lerwick,-1.15,60.15,42.8,87.0,100.0,5.82,GB,1602910951.0
gat,34.76,31.61,71.01,72.0,0.0,4.74,IL,1602910682.0
salalah,54.09,17.02,78.8,39.0,20.0,2.24,OM,1602910445.0
millinocket,-68.71,45.66,50.0,93.0,90.0,3.36,US,1602910952.0
yellowknife,-114.35,62.46,24.8,85.0,90.0,16.11,CA,1602910952.0
atuona,-139.03,-9.8,78.6,74.0,3.0,18.77,PF,1602910952.0
kangaatsiaq,-53.46,68.31,42.39,79.0,100.0,21.36,GL,1602910952.0
mount isa,139.5,-20.73,95.0,13.0,0.0,4.7,AU,1602910820.0
gorontalo,123.06,0.54,79.14,87.0,99.0,3.4,ID,1602910952.0
pemba,40.52,-12.97,77.0,83.0,40.0,9.17,MZ,1602910953.0
butaritari,172.79,3.07,82.36,75.0,34.0,13.62,KI,1602910983.0
dikson,80.55,73.51,16.34,95.0,4.0,14.92,RU,1602910983.0
nishihara,127.76,26.18,82.4,57.0,75.0,11.41,JP,1602910983.0
avera,-82.53,33.19,53.6,87.0,1.0,5.82,US,1602910983.0
elban,136.51,50.1,43.74,60.0,71.0,16.22,RU,1602910983.0
kununurra,128.73,-15.77,98.6,30.0,0.0,12.75,AU,1602910983.0
taoudenni,-3.98,22.68,80.4,22.0,0.0,7.92,ML,1602910984.0
ostrovnoy,39.51,68.05,32.04,94.0,78.0,11.23,RU,1602910984.0
karanganyar,111.08,-6.71,93.45,41.0,75.0,4.92,ID,1602910984.0
evensk,159.23,61.95,35.91,76.0,0.0,9.75,RU,1602910984.0
beringovskiy,179.32,63.05,37.56,79.0,84.0,5.99,RU,1602910408.0
omboue,9.26,-1.57,75.67,84.0,100.0,5.37,GA,1602910984.0
nikolskoye,30.79,59.7,33.8,86.0,84.0,2.24,RU,1602910984.0
tulun,100.58,54.56,41.54,66.0,99.0,9.55,RU,1602910984.0
hay river,-115.8,60.82,24.8,79.0,90.0,29.97,CA,1602910804.0
aleysk,82.78,52.49,54.32,43.0,80.0,20.15,RU,1602910985.0
mataura,168.86,-46.19,57.99,60.0,79.0,1.99,NZ,1602910985.0
saldanha,17.94,-33.01,59.0,87.0,51.0,8.05,ZA,1602910985.0
sao sebastiao,-45.41,-23.76,63.52,81.0,33.0,1.3,BR,1602910985.0
okha,142.95,53.57,43.54,60.0,9.0,12.77,RU,1602910985.0
ambilobe,49.05,-13.2,83.71,46.0,2.0,3.27,MG,1602910985.0
wajid,43.25,3.81,76.69,73.0,0.0,17.78,SO,1602910985.0
chakradharpur,85.63,22.7,87.8,66.0,20.0,2.24,IN,1602910986.0
seoul,126.98,37.57,66.2,34.0,1.0,3.36,KR,1602910762.0
egvekinot,-179.17,66.32,33.06,100.0,100.0,8.9,RU,1602910986.0
bullhead city,-114.57,35.15,82.4,7.0,1.0,4.7,US,1602910906.0
muros,-9.06,42.78,53.01,87.0,100.0,1.99,ES,1602910518.0
senneterre,-77.23,48.38,32.0,92.0,75.0,4.7,CA,1602910986.0
severo-kurilsk,156.12,50.68,43.79,68.0,82.0,24.32,RU,1602910986.0
sitka,-135.33,57.05,44.6,75.0,75.0,9.17,US,1602910734.0
kodiak,-152.41,57.79,35.6,80.0,1.0,4.7,US,1602910725.0
ponta do sol,-17.1,32.67,64.4,77.0,20.0,5.82,PT,1602910987.0
novikovo,37.89,51.15,47.05,84.0,48.0,9.31,RU,1602910987.0
santarem,-54.71,-2.44,82.4,83.0,0.0,4.7,BR,1602910987.0
margate,1.39,51.38,51.01,81.0,100.0,1.99,GB,1602910987.0
kapaa,-159.32,22.08,80.6,78.0,40.0,11.41,US,1602910987.0
clyde river,-68.59,70.47,32.0,95.0,90.0,5.82,CA,1602910987.0
yugorsk,63.33,61.31,33.26,87.0,67.0,8.34,RU,1602910987.0
bayanday,105.51,53.07,34.12,76.0,99.0,8.16,RU,1602910988.0
new norfolk,147.06,-42.78,46.99,81.0,100.0,2.08,AU,1602910988.0
gewane,40.65,10.17,86.63,28.0,7.0,8.9,ET,1602910988.0
faanui,-151.75,-16.48,79.59,80.0,22.0,7.72,PF,1602910446.0
wynyard,145.72,-41.0,51.01,86.0,100.0,10.0,AU,1602910988.0
saint-philippe,55.77,-21.36,78.01,65.0,2.0,6.93,RE,1602910770.0
macas,-78.12,-2.32,64.49,79.0,64.0,2.82,EC,1602910749.0
olafsvik,-23.71,64.89,46.62,86.0,100.0,1.25,IS,1602910694.0
serafimovich,42.74,49.58,51.01,87.0,44.0,5.01,RU,1602910988.0
nouakchott,-15.98,18.09,82.4,42.0,13.0,10.29,MR,1602911019.0
padang,100.35,-0.95,86.79,57.0,93.0,5.55,ID,1602911019.0
lompoc,-120.46,34.64,64.99,51.0,1.0,5.61,US,1602911019.0
vanersborg,12.32,58.38,30.2,92.0,0.0,4.7,SE,1602911019.0
naples,14.25,40.83,55.99,93.0,20.0,2.24,IT,1602910854.0
sao felix do xingu,-51.99,-6.64,74.91,59.0,41.0,0.83,BR,1602910831.0
houma,-90.72,29.6,60.01,87.0,1.0,4.7,US,1602911019.0
leningradskiy,178.42,69.38,32.27,93.0,65.0,8.97,RU,1602911019.0
srednekolymsk,153.68,67.45,24.93,97.0,84.0,8.88,RU,1602910768.0
upernavik,-56.15,72.79,38.48,77.0,100.0,0.56,GL,1602911020.0
chimbote,-78.58,-9.09,61.7,87.0,67.0,4.85,PE,1602911020.0
mayor pablo lagerenza,-60.77,-19.93,74.89,70.0,7.0,3.76,PY,1602911020.0
pingzhuang,119.29,42.04,63.23,25.0,0.0,8.41,CN,1602911020.0
hasaki,140.83,35.73,54.0,93.0,75.0,12.75,JP,1602911020.0
chippewa falls,-91.39,44.94,30.99,79.0,1.0,6.2,US,1602910923.0
caala,15.56,-12.85,61.2,93.0,86.0,2.15,AO,1602911020.0
pangnirtung,-65.71,66.15,37.29,84.0,100.0,3.56,CA,1602911020.0
flin flon,-101.86,54.77,23.11,92.0,39.0,8.88,CA,1602911020.0
bakchar,82.07,57.02,46.9,73.0,100.0,10.36,RU,1602911021.0
aberdeen,-2.1,57.14,45.0,93.0,75.0,10.29,GB,1602910914.0
avarua,-159.78,-21.21,73.4,78.0,72.0,10.29,CK,1602910986.0
highland springs,-77.33,37.55,53.6,87.0,90.0,6.93,US,1602911021.0
valleyview,-117.29,55.07,22.33,85.0,13.0,6.15,CA,1602910854.0
port elizabeth,25.57,-33.92,57.2,93.0,80.0,3.36,ZA,1602911021.0
bluff,168.33,-46.6,57.99,60.0,50.0,1.99,NZ,1602911021.0
portland,-122.68,45.52,61.0,72.0,75.0,6.82,US,1602910373.0
acapulco,-99.89,16.86,80.28,77.0,91.0,3.02,MX,1602910479.0
pevek,170.31,69.7,34.36,89.0,36.0,13.6,RU,1602910446.0
half moon bay,-122.43,37.46,75.2,39.0,90.0,2.28,US,1602911021.0
vostok,135.88,46.49,42.48,62.0,6.0,9.53,RU,1602911022.0
sibolga,98.78,1.74,85.87,58.0,76.0,5.21,ID,1602911022.0
mega,38.3,4.05,59.31,94.0,93.0,17.69,ET,1602911022.0
tuktoyaktuk,-133.04,69.45,23.0,79.0,90.0,18.34,CA,1602911022.0
hluti,31.62,-27.22,64.35,71.0,0.0,4.03,SZ,1602911022.0
aswan,32.91,24.09,80.28,29.0,0.0,10.38,EG,1602911022.0
tacuati,-56.58,-23.45,74.77,74.0,69.0,5.86,PY,1602911022.0
paamiut,-49.67,61.99,43.2,78.0,100.0,39.57,GL,1602910988.0
omsukchan,155.8,62.53,24.39,83.0,98.0,4.05,RU,1602910724.0
mackay,149.2,-21.15,82.4,45.0,0.0,17.22,AU,1602911022.0
touros,-35.46,-5.2,73.4,88.0,20.0,3.36,BR,1602911023.0
noumea,166.46,-22.28,77.0,53.0,19.0,16.11,NC,1602911023.0
diego de almagro,-70.05,-26.37,57.13,35.0,0.0,1.03,CL,1602911023.0
milkovo,158.62,54.72,39.94,65.0,41.0,10.4,RU,1602911023.0
tessalit,1.01,20.2,79.38,17.0,0.0,8.34,ML,1602911023.0
kaeo,173.78,-35.1,64.0,62.0,8.0,10.0,NZ,1602911023.0
buckeye,-112.58,33.37,84.99,9.0,1.0,11.41,US,1602910800.0
eirunepe,-69.87,-6.66,71.42,98.0,61.0,2.08,BR,1602910943.0
monterey,-121.25,36.25,71.6,35.0,1.0,3.36,US,1602910798.0
georgetown,100.34,5.41,89.6,66.0,40.0,4.7,MY,1602910958.0
sobolevo,31.9,54.43,34.93,87.0,10.0,5.7,RU,1602911054.0
aldergrove,-122.47,49.06,55.0,100.0,90.0,5.82,CA,1602910802.0
chikwawa,34.8,-16.03,73.89,65.0,27.0,5.93,MW,1602911054.0
otane,176.63,-39.88,57.99,66.0,91.0,1.01,NZ,1602911054.0
khatanga,102.5,71.97,2.59,90.0,0.0,4.05,RU,1602911054.0
berlevag,29.09,70.86,36.37,78.0,100.0,8.9,NO,1602911054.0
banepa,85.52,27.63,80.6,57.0,20.0,2.24,NP,1602910797.0
basco,121.97,20.45,80.92,77.0,35.0,21.79,PH,1602911055.0
newport,-3.0,51.59,50.0,94.0,59.0,9.91,GB,1602910871.0
iquique,-70.14,-20.22,62.6,72.0,90.0,4.7,CL,1602911055.0
talnakh,88.4,69.49,24.8,73.0,20.0,20.13,RU,1602911055.0
north myrtle beach,-78.68,33.82,62.6,82.0,90.0,9.17,US,1602911046.0
hendek,30.75,40.8,50.0,100.0,18.0,1.12,TR,1602911055.0
adilabad,78.53,19.67,84.52,70.0,75.0,1.23,IN,1602911055.0
marrakesh,-8.01,31.63,51.8,71.0,0.0,2.24,MA,1602911056.0
najran,44.13,17.49,62.6,29.0,0.0,5.82,SA,1602910953.0
lebu,-73.65,-37.62,49.57,93.0,79.0,2.86,CL,1602911056.0
faya,42.45,18.39,55.4,32.0,0.0,6.87,SA,1602911056.0
vitim,112.56,59.45,28.67,95.0,100.0,11.39,RU,1602911056.0
tabuk,121.44,17.42,78.58,86.0,100.0,0.54,PH,1602910810.0
buala,159.59,-8.14,84.45,71.0,28.0,5.01,SB,1602911056.0
katherine,132.27,-14.47,96.8,28.0,40.0,5.82,AU,1602911056.0
kapchorwa,34.45,1.4,61.88,88.0,94.0,0.67,UG,1602911056.0
san quintin,-115.95,30.48,70.61,77.0,68.0,7.23,MX,1602911056.0
morinville,-113.65,53.8,21.2,57.0,1.0,6.93,CA,1602911057.0
bawku,-0.24,11.06,77.7,77.0,60.0,4.43,GH,1602911057.0
boguchany,97.45,58.38,34.03,91.0,100.0,10.31,RU,1602911057.0
itamaraca,-34.83,-7.75,78.8,78.0,40.0,9.17,BR,1602910874.0
iqaluit,-68.51,63.75,33.8,100.0,90.0,9.17,CA,1602910849.0
san cristobal,-72.22,7.77,65.61,89.0,95.0,3.56,VE,1602911057.0
longkou,120.33,37.65,62.98,37.0,0.0,9.89,CN,1602911057.0
lagoa,-27.98,39.05,62.82,66.0,88.0,10.4,PT,1602911057.0
dudinka,86.18,69.41,24.8,73.0,28.0,20.13,RU,1602911057.0
port blair,92.75,11.67,83.57,75.0,89.0,13.38,IN,1602911058.0
atar,-13.05,20.52,85.06,26.0,6.0,6.82,MR,1602911058.0
vestmannaeyjar,-20.27,63.44,44.62,66.0,96.0,3.98,IS,1602911058.0
san vicente,-54.13,-26.62,61.95,77.0,14.0,4.36,AR,1602910908.0
kyaikkami,97.57,16.08,78.37,89.0,100.0,7.9,MM,1602911058.0
bathsheba,-59.52,13.22,80.6,83.0,40.0,11.41,BB,1602911058.0
tocopilla,-70.2,-22.09,62.2,56.0,8.0,1.68,CL,1602911058.0
mount gambier,140.77,-37.83,57.2,67.0,90.0,19.46,AU,1602910834.0
swellendam,20.44,-34.02,57.2,93.0,100.0,11.41,ZA,1602911058.0
joensuu,29.76,62.6,37.99,86.0,93.0,8.05,FI,1602911058.0
fort nelson,-122.7,58.81,15.8,78.0,20.0,4.7,CA,1602910961.0
bukachacha,116.92,52.98,29.17,74.0,18.0,9.98,RU,1602911059.0
hokitika,170.97,-42.72,52.16,85.0,98.0,10.02,NZ,1602910979.0
la ronge,-105.28,55.1,23.0,73.0,90.0,12.75,CA,1602911027.0
kawalu,108.21,-7.38,83.07,62.0,77.0,4.97,ID,1602911089.0
viedma,-63.0,-40.81,73.99,54.0,0.0,4.0,AR,1602911089.0
cherskiy,161.3,68.75,27.3,99.0,95.0,4.05,RU,1602911089.0
puerto escondido,-97.07,15.85,79.16,76.0,85.0,5.08,MX,1602911089.0
ancud,-73.82,-41.87,48.99,93.0,20.0,3.36,CL,1602911089.0
sao filipe,-24.5,14.9,79.77,81.0,100.0,2.71,CV,1602911090.0
cumana,-64.18,10.46,79.56,73.0,98.0,6.08,VE,1602911090.0
ossora,163.07,59.24,38.79,72.0,11.0,10.13,RU,1602911090.0
fortuna,-124.16,40.6,55.99,87.0,1.0,8.05,US,1602911090.0
rio grande,-52.1,-32.03,60.98,87.0,0.0,16.6,BR,1602910819.0
jumla,82.18,29.27,71.22,22.0,35.0,5.28,NP,1602910871.0
matara,80.54,5.95,85.01,64.0,70.0,14.09,LK,1602911090.0
san patricio,-97.52,28.02,62.6,88.0,90.0,10.29,US,1602911090.0
tsiroanomandidy,46.03,-18.77,75.97,57.0,44.0,4.09,MG,1602911080.0
siderno,16.3,38.28,62.01,67.0,6.0,8.05,IT,1602911090.0
aras,-2.36,42.56,39.99,100.0,20.0,1.52,ES,1602911091.0
gwadar,62.33,25.12,82.71,23.0,0.0,14.72,PK,1602911091.0
oudtshoorn,22.2,-33.59,60.8,59.0,80.0,1.12,ZA,1602911091.0
east london,27.91,-33.02,60.8,93.0,2.0,3.36,ZA,1602911091.0
kahului,-156.47,20.89,84.2,66.0,40.0,8.05,US,1602910803.0
ahipara,173.17,-35.17,57.56,57.0,26.0,6.02,NZ,1602911091.0
takoradi,-1.76,4.88,75.58,90.0,98.0,6.38,GH,1602911091.0
isangel,169.27,-19.55,78.8,83.0,75.0,5.82,VU,1602911060.0
praia da vitoria,-27.07,38.73,63.0,93.0,40.0,6.73,PT,1602911091.0
winthrop,-70.98,42.38,52.0,87.0,90.0,12.75,US,1602910819.0
saskylakh,114.08,71.92,8.15,94.0,96.0,5.35,RU,1602911092.0
richards bay,32.04,-28.78,69.69,76.0,12.0,9.6,ZA,1602911092.0
warri,5.75,5.52,74.98,93.0,100.0,1.41,NG,1602911092.0
kovdor,30.48,67.57,30.27,99.0,100.0,6.29,RU,1602911092.0
pisco,-76.22,-13.7,63.0,82.0,12.0,11.41,PE,1602911092.0
alofi,-169.92,-19.06,77.0,88.0,100.0,10.29,NU,1602911092.0
envira,-70.22,-7.3,70.88,99.0,65.0,1.25,BR,1602911092.0
sioux lookout,-91.92,50.1,28.4,74.0,75.0,5.82,CA,1602911092.0
bima,118.72,-8.47,93.47,41.0,42.0,2.89,ID,1602911092.0
lakatoro,167.42,-16.1,80.6,74.0,75.0,6.93,VU,1602911093.0
bozova,38.53,37.36,66.2,37.0,0.0,2.24,TR,1602911093.0
deputatskiy,139.9,69.3,13.33,96.0,100.0,11.01,RU,1602911093.0
haga,4.3,52.08,48.99,100.0,90.0,1.12,NL,1602911093.0
llangefni,-4.31,53.26,50.0,81.0,43.0,9.17,GB,1602911093.0
jejuri,74.17,18.28,77.92,69.0,79.0,3.38,IN,1602911093.0
halifax,-63.57,44.65,50.0,100.0,90.0,8.05,CA,1602911035.0
necochea,-58.74,-38.55,57.0,96.0,0.0,11.01,AR,1602911053.0
hohhot,111.65,40.81,50.0,29.0,0.0,6.71,CN,1602911094.0
barpeta,91.0,26.32,91.4,84.0,20.0,3.36,IN,1602911094.0
rio gallegos,-69.22,-51.62,44.6,70.0,75.0,5.82,AR,1602911094.0
emerald,148.17,-23.53,86.0,27.0,0.0,17.22,AU,1602910805.0
el campo,-96.27,29.2,62.01,82.0,90.0,6.67,US,1602911124.0
axim,-2.24,4.87,76.73,87.0,99.0,5.68,GH,1602911124.0
el sauzal,-116.68,31.9,66.99,95.0,7.0,3.18,MX,1602911124.0
puerto penasco,-113.53,31.32,84.99,25.0,0.0,5.01,MX,1602910896.0
dzerzhinskoye,95.23,56.83,46.26,70.0,100.0,12.26,RU,1602911125.0
makakilo city,-158.09,21.35,82.4,69.0,40.0,8.05,US,1602911013.0
pangody,74.49,65.85,29.89,96.0,100.0,13.94,RU,1602911125.0
khangarh,71.16,29.92,82.4,28.0,0.0,6.93,PK,1602911125.0
castro,-50.01,-24.79,51.35,89.0,60.0,9.89,BR,1602910838.0
araouane,-3.53,18.9,86.32,15.0,0.0,11.41,ML,1602911055.0
tazovskiy,78.7,67.47,29.07,97.0,100.0,24.85,RU,1602911080.0
husavik,-17.34,66.04,37.4,93.0,90.0,6.93,IS,1602911125.0
cananeia,-47.93,-25.01,64.17,84.0,37.0,6.02,BR,1602911125.0
dali,100.18,25.7,58.66,80.0,98.0,3.96,CN,1602911125.0
miri,114.01,4.41,87.8,74.0,40.0,4.7,MY,1602911053.0
karatau,70.47,43.17,60.82,31.0,0.0,2.73,KZ,1602911126.0
sao joao da barra,-41.05,-21.64,68.23,83.0,100.0,10.42,BR,1602911126.0
geraldton,114.6,-28.77,78.8,31.0,90.0,18.34,AU,1602911126.0
bereda,-7.54,43.27,46.0,96.0,100.0,5.01,ES,1602911126.0
twin falls,-114.64,42.35,59.0,40.0,1.0,16.11,US,1602910860.0
kumba,9.45,4.64,71.31,96.0,100.0,2.21,CM,1602911126.0
yulara,130.99,-25.24,98.6,13.0,52.0,5.82,AU,1602911126.0
nantucket,-70.1,41.28,62.01,88.0,90.0,11.41,US,1602911088.0
aykhal,111.5,66.0,14.0,92.0,0.0,4.47,RU,1602911007.0
tamandare,-35.1,-8.76,75.06,85.0,19.0,8.5,BR,1602911127.0
poum,164.02,-20.23,72.93,81.0,47.0,15.66,NC,1602911127.0
haines junction,-137.51,60.75,19.94,76.0,0.0,3.69,CA,1602911127.0
yonago,133.33,35.43,66.2,59.0,75.0,4.7,JP,1602910830.0
veraval,70.37,20.9,86.34,71.0,100.0,16.75,IN,1602911127.0
altamont,-121.74,42.21,57.0,50.0,1.0,5.06,US,1602911103.0
artvin,41.83,41.17,60.8,63.0,0.0,14.99,TR,1602911127.0
kuching,110.33,1.55,91.4,55.0,40.0,9.17,MY,1602911049.0
aktas,72.96,49.78,53.6,37.0,98.0,2.24,KZ,1602911128.0
vila,-8.16,42.03,43.0,92.0,100.0,1.99,PT,1602911128.0
polunochnoye,60.42,60.87,32.38,90.0,100.0,6.78,RU,1602911128.0
grindavik,-22.43,63.84,41.0,100.0,100.0,5.82,IS,1602911128.0
makurdi,8.51,7.74,73.02,96.0,99.0,5.66,NG,1602911128.0
arraial do cabo,-42.03,-22.97,68.32,78.0,88.0,2.28,BR,1602911128.0
basoko,23.62,1.24,71.55,93.0,47.0,0.78,CD,1602911128.0
mareeba,145.43,-17.0,84.2,48.0,0.0,14.99,AU,1602911128.0
road town,-64.62,18.42,78.8,83.0,1.0,6.93,VG,1602911073.0
pasni,63.47,25.26,83.44,27.0,52.0,25.77,PK,1602911129.0
shaunavon,-108.42,49.65,27.95,97.0,99.0,11.41,CA,1602910919.0
kargasok,80.86,59.06,44.31,88.0,82.0,12.59,RU,1602911129.0
alice springs,133.88,-23.7,100.4,15.0,40.0,12.75,AU,1602911129.0
bowen,148.23,-20.02,82.4,39.0,0.0,12.75,AU,1602911129.0
bengkulu,102.27,-3.8,84.36,67.0,32.0,7.27,ID,1602911129.0
chernyshevskiy,112.47,63.01,23.16,90.0,90.0,8.68,RU,1602911159.0
perkata,18.79,47.05,46.0,100.0,90.0,5.82,HU,1602911159.0
marzuq,46.47,14.4,74.08,20.0,0.0,2.13,YE,1602911160.0
dhidhdhoo,73.1,6.88,82.47,74.0,30.0,11.59,MV,1602911160.0
asau,26.4,46.43,51.01,98.0,100.0,2.35,RO,1602911160.0
petropavlovsk-kamchatskiy,158.65,53.05,42.8,68.0,40.0,6.71,RU,1602911160.0
kabin buri,101.72,13.95,82.38,80.0,100.0,6.33,TH,1602911160.0
erdenet,104.08,49.03,40.05,66.0,20.0,5.91,MN,1602911160.0
manggar,108.27,-2.88,85.75,67.0,99.0,11.1,ID,1602911161.0
provideniya,-173.3,64.38,38.73,94.0,42.0,8.34,RU,1602911161.0
flinders,150.86,-34.58,75.0,72.0,100.0,5.01,AU,1602911161.0
wagar,36.2,16.15,81.82,51.0,0.0,6.98,SD,1602911161.0
dhandhuka,71.98,22.37,90.86,55.0,1.0,7.85,IN,1602911161.0
okhotsk,143.3,59.38,28.9,78.0,1.0,9.91,RU,1602911161.0
shimoda,138.95,34.67,57.2,93.0,75.0,25.28,JP,1602910985.0
meulaboh,96.13,4.14,84.36,69.0,92.0,5.82,ID,1602911162.0
griffith,-87.42,41.53,42.8,65.0,1.0,8.05,US,1602911162.0
nueva loja,-76.88,0.08,70.16,98.0,86.0,1.54,EC,1602911162.0
te anau,167.72,-45.42,51.31,71.0,64.0,1.79,NZ,1602911162.0
dunedin,170.5,-45.87,48.0,70.0,65.0,28.01,NZ,1602911130.0
zhigansk,123.37,66.77,19.71,90.0,91.0,3.74,RU,1602911162.0
broome,-75.83,42.25,37.99,100.0,20.0,8.05,US,1602911163.0
alekseyevka,38.69,50.63,51.13,74.0,96.0,9.55,RU,1602911163.0
alghero,8.32,40.56,57.2,76.0,20.0,6.93,IT,1602911163.0
mecca,39.83,21.43,90.48,11.0,0.0,5.39,SA,1602910921.0
verkhnyaya inta,60.31,65.98,27.66,98.0,100.0,13.04,RU,1602911163.0
hualmay,-77.61,-11.1,61.97,87.0,52.0,6.55,PE,1602911163.0
nuuk,-51.72,64.18,41.0,93.0,100.0,44.96,GL,1602910912.0
araci,-38.97,-11.33,66.85,95.0,25.0,6.35,BR,1602911163.0
columbus,-83.0,39.96,37.4,86.0,1.0,3.36,US,1602911007.0
port macquarie,152.92,-31.43,82.0,51.0,90.0,1.99,AU,1602911164.0
toora-khem,96.11,52.47,42.82,63.0,76.0,3.58,RU,1602911164.0
guhagar,73.19,17.48,82.85,75.0,42.0,13.6,IN,1602911164.0
puerto colombia,-74.95,10.99,84.2,83.0,40.0,10.29,CO,1602911164.0
tabas,56.92,33.6,59.0,15.0,0.0,2.24,IR,1602911164.0
marquette,-87.63,46.53,32.0,84.0,82.0,5.66,US,1602911164.0
yenagoa,6.26,4.92,74.17,95.0,100.0,3.09,NG,1602911164.0
amga,131.96,60.9,25.09,94.0,100.0,10.33,RU,1602911164.0
posse,-46.37,-14.09,77.92,27.0,2.0,4.5,BR,1602911165.0
auki,160.7,-8.77,83.34,74.0,22.0,1.81,SB,1602911165.0
luangwa,30.42,-15.62,78.13,41.0,0.0,11.63,ZM,1602911165.0
kibala,18.35,9.11,73.4,94.0,62.0,3.76,TD,1602911165.0
tortoli,9.66,39.93,59.0,51.0,11.0,4.7,IT,1602911165.0
newbury,-1.32,51.4,50.0,93.0,69.0,8.01,GB,1602911165.0
cabo san lucas,-109.91,22.89,81.0,80.0,0.0,1.01,MX,1602911147.0
vila franca do campo,-25.43,37.72,60.8,82.0,20.0,8.05,PT,1602911165.0
sinjai,120.25,-5.12,86.88,58.0,93.0,8.41,ID,1602911196.0
miraflores,-98.81,19.22,59.0,72.0,75.0,13.87,MX,1602911196.0
merauke,140.33,-8.47,83.95,64.0,48.0,18.3,ID,1602911196.0
sao paulo de olivenca,-68.87,-3.38,72.48,93.0,59.0,1.5,BR,1602911196.0
kattivakkam,80.32,13.22,84.2,79.0,75.0,2.24,IN,1602911196.0
xichang,102.26,27.9,59.79,62.0,98.0,1.16,CN,1602911196.0
jalu,21.55,29.03,75.61,34.0,0.0,13.35,LY,1602911196.0
liuhe,125.72,42.24,58.46,36.0,0.0,15.82,CN,1602911196.0
puertollano,-4.11,38.69,45.64,58.0,18.0,1.92,ES,1602911197.0
nizwa,57.53,22.93,84.22,11.0,0.0,0.56,OM,1602911197.0
camacha,-16.33,33.08,62.6,77.0,20.0,2.24,PT,1602911033.0
mehamn,27.85,71.04,35.55,80.0,100.0,10.83,NO,1602910987.0
genhe,121.52,50.78,37.83,66.0,65.0,12.8,CN,1602911111.0
norman wells,-126.83,65.28,21.2,73.0,90.0,13.87,CA,1602911197.0
karratha,116.85,-20.74,85.62,34.0,0.0,20.65,AU,1602911197.0
kargopol,38.95,61.51,31.33,97.0,91.0,4.68,RU,1602911197.0
beian,9.57,63.66,44.6,93.0,40.0,23.04,NO,1602911198.0
nioro,-15.75,13.35,76.21,90.0,90.0,4.47,GM,1602911198.0
kirkenaer,12.06,60.46,30.2,100.0,75.0,2.24,NO,1602911198.0
umm kaddadah,26.69,13.6,82.67,15.0,36.0,12.73,SD,1602911198.0
mitsamiouli,43.28,-11.38,79.16,69.0,11.0,1.23,KM,1602911198.0
turan,108.22,16.07,82.4,83.0,90.0,13.87,VN,1602911198.0
la troncal,-79.33,-2.4,73.4,82.0,66.0,2.24,EC,1602911198.0
chuy,-53.46,-33.7,55.36,95.0,0.0,8.77,UY,1602910976.0
manicore,-61.3,-5.81,74.08,93.0,100.0,2.24,BR,1602911198.0
killybegs,-8.45,54.63,45.95,81.0,89.0,10.45,IE,1602911198.0
porto novo,2.6,6.5,78.8,83.0,40.0,4.7,BJ,1602911199.0
waipawa,175.52,-41.41,55.0,76.0,97.0,9.17,NZ,1602911199.0
srivardhan,73.02,18.03,82.69,76.0,21.0,15.17,IN,1602911050.0
bogo,124.01,11.05,85.05,73.0,67.0,5.97,PH,1602911199.0
la rioja,-2.5,42.25,39.0,100.0,20.0,5.39,ES,1602911199.0
yuci,112.73,37.68,59.0,19.0,0.0,4.47,CN,1602911199.0
zhigalovo,105.16,54.81,34.21,80.0,100.0,6.98,RU,1602911199.0
oranjemund,16.43,-28.55,59.67,77.0,0.0,5.86,NA,1602911199.0
solnechnyy,136.63,50.72,41.45,63.0,74.0,9.44,RU,1602911199.0
mankachar,89.87,25.53,89.62,62.0,10.0,8.37,IN,1602911112.0
villingen-schwenningen,8.45,48.07,41.0,95.0,95.0,1.77,DE,1602910975.0
lanigan,-105.03,51.85,23.41,77.0,90.0,9.48,CA,1602911200.0
bilma,12.92,18.69,82.11,18.0,0.0,6.82,NE,1602911200.0
kapfenberg,15.27,47.45,44.01,84.0,100.0,3.09,AT,1602911200.0
itoman,127.67,26.12,82.4,65.0,20.0,19.46,JP,1602911200.0
koslan,48.9,63.46,33.19,92.0,100.0,7.7,RU,1602911200.0
kokopo,152.26,-4.35,83.73,69.0,91.0,2.57,PG,1602911200.0
shache,77.24,38.42,63.21,25.0,0.0,2.24,CN,1602911200.0
ndele,20.65,8.41,71.26,87.0,77.0,2.44,CF,1602911024.0
rio de janeiro,-43.21,-22.9,66.2,93.0,90.0,5.82,BR,1602911157.0
gravdal,13.5,68.12,42.03,72.0,100.0,16.51,NO,1602911201.0
port keats,129.55,-14.25,88.36,59.0,73.0,9.62,AU,1602911231.0
beira,34.84,-19.84,75.2,73.0,40.0,8.05,MZ,1602911231.0
chisindia,22.1,46.28,39.2,100.0,90.0,2.24,RO,1602911231.0
coihaique,-72.07,-45.58,44.6,87.0,30.0,1.12,CL,1602911231.0
praia,-23.51,14.92,75.2,88.0,99.0,5.82,CV,1602911231.0
honningsvag,25.97,70.98,38.73,72.0,100.0,16.35,NO,1602910952.0
wakkanai,141.67,45.41,57.2,41.0,20.0,14.99,JP,1602911232.0
zhanakorgan,67.25,43.91,64.89,27.0,0.0,4.83,KZ,1602911232.0
salaga,-0.52,8.55,73.78,95.0,97.0,3.49,GH,1602911232.0
bani walid,13.99,31.76,65.61,78.0,89.0,14.7,LY,1602911232.0
wilmington,-77.94,34.23,59.0,82.0,90.0,11.41,US,1602911059.0
hambantota,81.12,6.12,86.0,66.0,75.0,8.05,LK,1602911232.0
caiaponia,-51.81,-16.96,69.69,79.0,100.0,6.49,BR,1602911233.0
puerto madryn,-65.04,-42.77,71.42,44.0,0.0,18.32,AR,1602911233.0
scarborough,-0.4,54.28,48.0,90.0,100.0,1.01,GB,1602911233.0
longyearbyen,15.64,78.22,26.6,63.0,40.0,9.17,SJ,1602910987.0
la plata,-57.95,-34.92,64.99,86.0,3.0,1.01,AR,1602911204.0
bonavista,-53.11,48.65,48.99,83.0,13.0,6.51,CA,1602911099.0
los llanos de aridane,-17.92,28.66,68.0,82.0,99.0,8.05,ES,1602911233.0
hornepayne,-84.77,49.21,29.28,96.0,79.0,4.88,CA,1602911233.0
vanimo,141.3,-2.67,85.5,65.0,94.0,9.75,PG,1602911233.0
ramsar,50.64,36.92,62.6,82.0,0.0,2.24,IR,1602911234.0
grantham,-0.64,52.91,48.0,93.0,43.0,8.05,GB,1602911234.0
quelimane,36.89,-17.88,68.0,94.0,40.0,4.7,MZ,1602911235.0
kloulklubed,134.26,7.04,77.0,94.0,90.0,5.82,PW,1602911235.0
orlik,99.83,52.52,33.15,83.0,79.0,6.11,RU,1602911235.0
ust-kuyga,135.6,70.02,19.69,96.0,100.0,8.79,RU,1602911235.0
biryusinsk,97.82,55.96,45.72,63.0,100.0,11.1,RU,1602911235.0
bubaque,-15.83,11.28,81.82,87.0,86.0,10.2,GW,1602911235.0
broken hill,141.43,-31.95,66.2,77.0,75.0,17.22,AU,1602911235.0
jacareacanga,-57.75,-6.22,75.29,76.0,25.0,1.12,BR,1602911235.0
konstantinovka,127.98,49.62,51.75,46.0,36.0,10.94,RU,1602911235.0
mahon,4.27,39.89,55.4,87.0,40.0,6.93,ES,1602911236.0
fukue,128.84,32.69,69.8,56.0,40.0,17.22,JP,1602911236.0
kungurtug,97.52,50.6,41.67,61.0,71.0,1.07,RU,1602911236.0
guadalupe y calvo,-106.97,26.1,52.7,67.0,0.0,6.44,MX,1602911236.0
ust-maya,134.53,60.42,24.55,95.0,99.0,2.21,RU,1602911236.0
sungurlu,34.37,40.17,61.79,35.0,0.0,2.82,TR,1602911236.0
aracaju,-37.07,-10.91,78.8,69.0,40.0,8.05,BR,1602911211.0
saint-augustin,-58.65,51.23,46.33,92.0,29.0,4.74,CA,1602911237.0
belaya gora,146.42,68.53,26.31,98.0,100.0,10.67,RU,1602911237.0
aktash,87.73,50.3,33.21,76.0,43.0,3.8,RU,1602911237.0
novoderevyankovskaya,38.75,46.32,62.67,64.0,1.0,3.87,RU,1602911237.0
staryy nadym,72.68,65.61,30.81,96.0,98.0,10.38,RU,1602911237.0
dum duma,95.57,27.57,91.4,63.0,20.0,5.82,IN,1602911237.0
vardo,31.11,70.37,37.94,73.0,100.0,11.41,NO,1602911237.0
samarai,150.67,-10.62,79.45,84.0,13.0,12.08,PG,1602911268.0
bwanga,31.76,-3.03,71.13,66.0,17.0,3.98,TZ,1602911268.0
thunder bay,-89.32,48.4,30.2,74.0,90.0,3.36,CA,1602911121.0
lusambo,23.45,-4.97,70.79,93.0,93.0,1.48,CD,1602911268.0
coari,-63.14,-4.08,76.01,84.0,31.0,2.84,BR,1602911268.0
isabela,121.97,6.71,84.2,79.0,75.0,4.7,PH,1602911268.0
kulhudhuffushi,73.07,6.62,82.51,74.0,32.0,11.72,MV,1602911268.0
sena madureira,-68.66,-9.07,72.21,97.0,82.0,0.51,BR,1602911124.0
anchorage,-149.9,61.22,33.8,58.0,1.0,3.36,US,1602911268.0
yelets,38.5,52.62,40.08,84.0,86.0,7.52,RU,1602911268.0
goderich,-81.72,43.75,42.01,86.0,66.0,4.0,CA,1602911269.0
saint-georges,-61.75,12.06,82.4,83.0,20.0,12.75,GD,1602911269.0
champerico,-91.92,14.3,69.01,97.0,100.0,5.14,GT,1602911269.0
hargeysa,44.06,9.56,75.36,33.0,7.0,1.95,SO,1602911269.0
harper,-7.72,4.38,77.11,85.0,89.0,4.45,LR,1602911269.0
santa cruz,-63.17,-17.8,69.8,88.0,0.0,5.82,BO,1602911048.0
palmer,-72.33,42.16,48.2,93.0,90.0,10.29,US,1602911269.0
ekhabi,142.97,53.51,43.79,59.0,6.0,12.06,RU,1602911271.0
fereydun kenar,52.52,36.69,53.6,93.0,0.0,4.7,IR,1602911271.0
gurupa,-51.64,-1.41,75.88,78.0,25.0,5.44,BR,1602911271.0
port hedland,118.57,-20.32,91.4,36.0,0.0,19.46,AU,1602911271.0
correntina,-44.64,-13.34,75.38,36.0,0.0,3.58,BR,1602911271.0
quatre cocos,57.76,-20.21,79.0,78.0,20.0,3.36,MU,1602911039.0
tuy hoa,109.3,13.08,75.81,93.0,100.0,5.17,VN,1602911271.0
matane,-67.52,48.83,46.99,1.0,100.0,1.95,CA,1602911271.0
maceio,-35.74,-9.67,71.6,94.0,40.0,2.24,BR,1602911271.0
pedernales,-71.74,18.04,81.81,69.0,68.0,2.26,DO,1602911271.0
port-gentil,8.78,-0.72,76.98,83.0,100.0,10.89,GA,1602911272.0
sovetskaya gavan,140.29,48.97,52.41,43.0,0.0,11.65,RU,1602911272.0
walvis bay,14.51,-22.96,57.0,93.0,38.0,9.17,NA,1602911272.0
longview,-94.74,32.5,52.0,70.0,1.0,4.7,US,1602911149.0
yar-sale,70.83,66.83,30.25,98.0,100.0,25.84,RU,1602911272.0
opuwo,13.84,-18.06,65.91,51.0,38.0,2.35,NA,1602911272.0
mangrol,70.12,21.12,86.95,69.0,100.0,13.85,IN,1602911272.0
porto murtinho,-57.88,-21.7,76.78,72.0,2.0,4.47,BR,1602911273.0
shubarkuduk,56.49,49.14,58.01,34.0,77.0,14.2,KZ,1602911273.0
ayni,68.54,39.39,55.31,36.0,0.0,0.58,TJ,1602911273.0
charters towers,146.27,-20.1,88.39,16.0,0.0,10.4,AU,1602911273.0
traiguen,-72.68,-38.25,45.41,94.0,19.0,2.19,CL,1602911273.0
nanortalik,-45.24,60.14,40.17,78.0,100.0,10.45,GL,1602911273.0
porosozero,32.73,62.72,32.86,95.0,100.0,8.52,RU,1602911273.0
altay,88.12,47.87,47.25,48.0,0.0,2.77,CN,1602911273.0
panorama,23.03,40.59,64.0,93.0,90.0,1.12,GR,1602911274.0
karwar,74.13,14.8,80.91,77.0,45.0,9.93,IN,1602911274.0
verkhnyaya balkariya,43.46,43.13,53.6,62.0,0.0,2.24,RU,1602911274.0
hobyo,48.53,5.35,81.14,75.0,2.0,15.73,SO,1602911274.0
vangaindrano,47.6,-23.35,71.22,88.0,61.0,9.53,MG,1602911274.0
thinadhoo,72.93,0.53,83.1,76.0,58.0,17.6,MV,1602911275.0
nyrob,56.72,60.73,31.93,97.0,100.0,8.1,RU,1602911275.0
gizo,156.84,-8.1,84.63,69.0,83.0,6.15,SB,1602911305.0
sombrio,-49.62,-29.11,60.57,85.0,46.0,5.08,BR,1602911305.0
kalabo,22.68,-14.97,72.12,38.0,0.0,9.42,ZM,1602911305.0
niquelandia,-48.46,-14.47,76.62,60.0,45.0,4.65,BR,1602911305.0
baruun-urt,113.28,46.68,48.15,49.0,69.0,12.55,MN,1602911305.0
olot,2.49,42.18,43.0,10.0,11.0,3.67,ES,1602911306.0
arlit,7.39,18.74,85.73,15.0,0.0,6.24,NE,1602911306.0
erenhot,111.98,43.65,52.48,38.0,17.0,10.98,CN,1602911306.0
madang,145.8,-5.22,77.74,88.0,100.0,2.28,PG,1602911306.0
fjerritslev,9.27,57.08,39.99,89.0,0.0,1.01,DK,1602911306.0
holbrook,-73.08,40.81,51.01,93.0,90.0,13.87,US,1602911297.0
yerbogachen,108.01,61.28,27.72,95.0,100.0,9.69,RU,1602911066.0
sinnamary,-52.95,5.38,77.59,84.0,23.0,9.84,GF,1602911306.0
aleksandrovsk-sakhalinskiy,142.16,50.9,48.79,51.0,3.0,17.65,RU,1602911306.0
dargaville,173.88,-35.93,57.43,56.0,5.0,5.99,NZ,1602911306.0
kathu,98.33,7.92,86.0,79.0,40.0,18.34,TH,1602911306.0
yuli,10.27,9.7,74.39,75.0,47.0,2.93,NG,1602911307.0
andenes,16.12,69.31,39.2,86.0,75.0,9.17,NO,1602911307.0
tornio,24.15,65.85,32.0,81.0,100.0,1.12,FI,1602911307.0
cape canaveral,-80.6,28.41,80.6,78.0,1.0,4.7,US,1602911307.0
inirida,-67.92,3.87,73.85,95.0,62.0,1.88,CO,1602911307.0
sechura,-80.82,-5.56,65.26,80.0,55.0,7.43,PE,1602911307.0
hof,11.92,50.32,42.01,99.0,100.0,10.0,DE,1602911307.0
akyab,92.9,20.15,88.38,66.0,93.0,5.5,MM,1602911307.0
kodinsk,99.18,58.69,31.21,97.0,100.0,9.71,RU,1602911308.0
illela,5.3,13.73,83.34,38.0,2.0,4.36,NG,1602911288.0
casas grandes,-107.95,30.37,55.99,48.0,0.0,1.99,MX,1602911308.0
santa maria del oro,-105.37,25.93,56.8,64.0,5.0,0.81,MX,1602911308.0
aksu,80.26,41.12,60.69,30.0,0.0,0.94,CN,1602911308.0
tamiahua,-97.45,21.27,74.17,83.0,29.0,5.99,MX,1602911308.0
cabedelo,-34.83,-6.98,75.2,94.0,40.0,3.36,BR,1602911308.0
moosburg,11.93,48.47,43.0,93.0,75.0,3.36,DE,1602911308.0
cockburn town,-71.14,21.46,83.73,79.0,68.0,18.63,TC,1602911091.0
hukuntsi,21.75,-24.0,74.32,27.0,19.0,12.8,BW,1602911308.0
cayenne,-52.33,4.93,73.4,100.0,64.0,9.24,GF,1602911309.0
mayo,-76.51,38.89,51.01,81.0,90.0,4.7,US,1602911309.0
ardesen,40.99,41.19,60.8,63.0,0.0,14.99,TR,1602911309.0
cabano,122.7,10.59,84.4,71.0,87.0,2.35,PH,1602911309.0
ayan,138.17,56.45,39.6,66.0,74.0,0.58,RU,1602911309.0
beyneu,55.2,45.32,62.94,28.0,0.0,9.73,KZ,1602911309.0
ngunguru,174.5,-35.62,63.0,63.0,12.0,11.01,NZ,1602911286.0
caravelas,-39.25,-17.71,72.84,85.0,100.0,10.22,BR,1602911309.0
ayagoz,80.44,47.97,56.71,35.0,0.0,1.19,KZ,1602911310.0
tuatapere,167.68,-46.13,57.99,60.0,62.0,1.99,NZ,1602911310.0
kudinovo,36.25,55.0,35.6,97.0,75.0,2.24,RU,1602911310.0
jiayuguan,98.3,39.82,53.44,34.0,88.0,17.11,CN,1602911340.0
gornopravdinsk,69.9,60.05,33.84,87.0,59.0,7.34,RU,1602911340.0
lorengau,147.27,-2.02,83.71,77.0,97.0,7.52,PG,1602911334.0
coquimbo,-71.34,-29.95,51.8,93.0,1.0,2.24,CL,1602911340.0
svetlyy,20.13,54.67,42.8,87.0,75.0,6.71,RU,1602911340.0
planeta rica,-75.59,8.41,75.36,96.0,100.0,4.97,CO,1602911341.0
